id,lat,lon,name
1924395688,-14.352189,31.152179,Minga Mission Hospital
4195191381,-12.9910772,28.6543767,Military Hospital
4468703392,-15.3393099,28.6685803,Chongwe District Hospital
4912302221,-14.5564375,30.8146692,Nyimba District Hospital
4979868021,-15.4101655,28.293701,Pearl of Health
5087935933,-14.44861,28.43903,Mine Hospital 1B
5228474756,-16.42935,27.54573,Chikuni Mission Hospital
5245373024,-17.0306697,26.4775611,Kalomo District Hospital
5568533203,-14.7806556,28.0623114,Liteta
6037006023,-12.292911,33.1688996,Lundazi District Hospital
6343466777,-15.2462186,30.2469701,Sacred Heart Hospital
7509151485,-14.9764277,27.0533359,Mumbwa General Hospital
7557175178,-15.3728179,28.264428,Matero Level 1 Hospital
7557175179,-15.3729817,28.2650905,Chingwele Clinic
9003282993,-13.639924,32.6493437,ALTAF Memorial Hospital
9295591890,-13.4809782,25.8549136,Mukinge Mission Hospital
9477209020,-15.4530872,28.3519949,South Point Hospital
9649216256,-15.3718727,28.4235067,NaN
9771291443,-15.1260675,27.362705,Nangoma Mission Hospital
9801341528,-12.5410718,33.0376839,Lumezi Mission Hospital
9969312696,-11.460139,30.5637,White Healthy Center
9969322287,-10.50083,33.554355,Gombelimo Health Centre
9969322293,-10.8630766,31.508543,Chilanga Mini Hospital
9969322295,-11.37596,31.01353,Chalabesa Mini Hospital
9969322314,-10.866616,31.885683,Underfive Clinic Center
9969322319,-10.991873,32.15033,Mulanga Rural Health Centre
9969322341,-10.090876,32.920472,Health Post
9969322369,-9.313955,32.762474,Nzela
9969322429,-10.5609165,32.0717102,Chinsali District Hospital
9969420370,-14.438363,28.456979,Mela Medical Centre
9969420388,-14.43501,28.429398,Kabwe General Hospital
9969420397,-12.200453,30.132414,Gibson Rural Health Centre
9969420427,-13.61839,29.386771,Lesa Wesu Medical Centre
9969420435,-15.007748,27.195908,Mulungushi 2nd Level Hospital
10871772822,-15.8845949,27.7717392,Victoria Hospital
11139087043,-9.3415906,31.5243793,Chindo Health Post
11353604619,-16.612808,23.8637663,Mutwa Health Post
11563626465,-15.5398196,23.1155928,Nalolo District Hospital
11693581513,-14.9821923,22.9505353,Libonda Rural Health Center
11697086455,-14.6543092,22.856763,Kuuli Rural Health Center
11699898076,-16.7082419,22.4368113,lupuka health center
11700087129,-14.83655,22.5662832,Lumei health post
11700319607,-14.7520816,22.9417773,Luoke East Health Post
11700319608,-14.775215,22.9635659,Luoke East Health Post
11700888697,-13.9436445,22.5542605,Lutembwe Health Post
11704740240,-15.2434604,23.4062518,Kalundwana Rural Health Center
11704834211,-15.4804128,23.653779,Nalikwanda Stage II Rural Health Centre
11716041572,-14.0554335,22.7231761,Lubelele Health Post
11716060754,-15.7069853,22.391008,Lueti Rural health center
11716184671,-16.4950607,22.5103038,KALENGE HEALTH POST
11716188872,-14.2766853,22.1059793,Lukena Rural health center
11716261462,-14.6550591,22.3917913,Lukoko health post
11716265329,-15.476862,22.9585776,Lulambo health post
11716901822,-15.4243487,22.3194465,Mabula health post
11717009238,-14.0120962,22.8220737,Mambungo Health Post
11745728889,-15.3837426,23.1860077,Sefula RHC
11786524835,-14.3856514,23.8118592,Ngimbu Rural Health Center
11891958185,-10.5800481,31.1868539,Nkolemfumu Mini Hospital
11893351488,-15.8127642,22.8771554,Nakatwelenge
11982282469,-15.7326922,23.0126159,Nalolo District Hospital
12060917423,-16.7082204,24.2721847,Lumbe Health Post
12061024876,-15.5905094,22.963362,Nalolo District Hospital
12103974443,-14.542537,30.831132,NaN
12120485945,-14.1113866,31.3225579,Nkhwewakwewa Mini Hospital
12120532722,-14.2487635,31.3320071,Petauke District Hospital
12120555621,-14.5849771,31.3835777,Kaumbwe Mini Hospital
12120572781,-14.144485,31.352301,Mkwama Mini Hospital
12123640619,-14.220591,31.68298,Nsheketeni mini Hospital
12123691766,-14.3201786,31.8889555,Ndaula Mini Hospital
12123692014,-14.380532,31.796719,Nyanje Mission Hospital
12131039886,-14.0864871,32.0500392,Katete Boma Mini Hospital
12162957374,-13.7036416,32.6053814,Kagunda Mini Hospital
12218114837,-14.0631515,31.4502151,Chitindi Mini Hospital
12231995718,-11.9804809,33.1214961,Chasefu Mini Hospital
12238482280,-13.042278,32.9553978,Mwasemphangwe Mini Hospital
12258737608,-10.1618167,32.6292833,Isoka District Hospital
12275357961,-11.747,30.7928,Kopa Mini Hospital
12278846454,-12.6177675,31.0060492,Mpumba Mini Hospital
12278893908,-12.227876,30.5767755,Chiundaponde Mini Hospital
12278950470,-11.5969931,31.9235592,Mukungule Mini Hospital
12281960321,-11.8316659,31.4370556,Chitulika Mini Hospital
12289889984,-11.2082,31.82696,Kalalantekwe Mini Hospital
12294094452,-11.9423266,28.751099,Chembe Mini-Hospital
12295968383,-8.5257572,29.0106342,Twaileta Mini Hospital
12296132754,-11.119077,29.6456456,Lubwe Mission Hospital
12299810202,-9.8108904,29.3580395,Titus Mukupo Mini Hopital
12301305395,-9.7236835,29.2701619,Katungulu Mini Hospital
12301718934,-9.7799171,29.0938952,NaN
12301757773,-9.9896834,29.4167831,Chisembe Mini Hospital
12309015273,-11.1908432,28.8462668,Kapanda Mini Hospital
12309309348,-10.883202,28.8725304,NaN
12309334757,-10.7633669,28.828237,Chisunka Mini Hospital
12309376744,-11.4771057,28.4280441,Kosamu Mini Hospital
12309407615,-11.3538863,28.4658206,Lofoyi Mini Hospital
12309412503,-11.3393886,28.659526,Chikonshi Mini Hospital
12309426419,-11.2461811,28.8954845,Mansa District Hospital
12318906660,-11.1963642,28.9035707,Home of Compassion Hospital
12320934684,-11.3600765,29.4414177,Nachibili Mini Hospital
12325380226,-11.2364991,28.8759172,Kasongo Mini Hospital
12330327034,-12.3704465,29.4425182,Milenge District Hospital
12347668865,-9.75308,28.796407,Mbereshi Mission Hospital
12347774088,-10.4432869,28.666191,Kashiba Mini Hospital
12347785079,-10.5268633,28.6522924,Mambilima Mission Hospital
12347806869,-10.359716,28.6939827,Mwense District Hospital
12436918641,-13.5889432,27.8143416,Munkumpu Mini Hospital
12436978084,-13.3539437,28.4194136,St Theresa Mission Hospital
12466982520,-13.510842,28.156239,Mpongwe Mission Hospital
12468481570,-12.5585406,27.8408847,Chawama Mini Hospital
12468747054,-12.6393843,28.0621008,Chambishi Mini Hopsital
12473184884,-12.8380764,28.2465298,Ndeke Village Hospital
12480575699,-12.8098107,28.2250824,Progress Medical Center
12488495186,-12.8938632,27.3701529,St Marys First Level Hospital
12533430196,-12.587098,28.2694539,Kawama East Mini Hospital
12565110478,-16.4178491,23.3045079,Nangweshi Mini Hospital
12578448722,-14.7115261,24.7202696,Kazabami Mini Hospital
12620037249,-16.8950356,26.9977398,NaN
12860535397,-15.4036555,28.2868697,DNA Hub Africa
13120127067,-14.4135508,23.2593387,Lukulu District Hospital
13120725310,-14.3761578,23.2377577,Old Lukulu District Hospital
13122916000,-16.5208596,27.3666993,Pemba Mini Hospital
13122916001,-16.5203222,27.3654252,Pemba District Hospital
13420363401,-17.2639573,24.3844557,chisu clinic
2473611357,-15.4080123,28.6914869,Kabeleka Clinic
3590723689,-10.665733,28.9616563,Mutwe-Wankoko Health Post
3590765011,-10.712748,29.0614452,Chisunka RHC Clinic Outreach Assembly Point
3743232285,-13.0719522,30.6281167,Kanona Rural Health Post
4208998446,-13.0094866,28.6202,Lubuto Clinic
4323038295,-17.2686915,26.1275074,Munkolo Rural Health Clinic
4427485792,-15.4085214,28.2949303,Advanced Diagnostic Centre
4434365191,-15.3816577,28.2634441,matero clinic
4434404689,-15.4616456,28.2832627,Chawama Clinic
4434404789,-15.3680613,28.3832364,Chelstone Clinic
4434727190,-15.5228604,28.3020599,lilayi clinic
4470157590,-15.414212,28.2929249,Dr Agarwal's Eye Hospital
4613944589,-12.798715,32.933676,Ndaiwala Rural Health Centre
4620376492,-12.7950434,28.2087909,Buchi Main Urban Health Centre
4648712389,-12.6575589,32.9404148,Mwimba Rural Health Center
4725939967,-15.4312607,28.2618615,Clinic For Natural Medicine
4727643883,-15.4312077,28.2618374,Clinic For Natural Medicine
4738115281,-16.5945115,26.8672383,NaN
4775203360,-15.4262723,28.2352862,Kanyama West Clinic
4789494024,-14.983304,27.0649,Mumbwa Urban Clinic
4790146923,-15.4374543,28.2498,Kamoto Medical Clinic
4793334843,-15.4232895,28.2465889,Mupone Maternity Clinic
4901714535,-14.898299,30.3947646,St. Josephs Rural Health Centre
4904767222,-12.4243541,32.2876004,Chitungulu Rural Health Centre
4952406124,-15.406586,28.3026723,NaN
4952406322,-13.641312,32.6382489,Chipata One Stop Centre
5087958425,-15.4395635,28.3249522,Camp Hospital
5148061921,-15.4109865,28.2812956,Corp Med Clinic
5193427922,-14.0662453,32.0477593,Chibolya Health Centre
5245373025,-16.2767374,27.4750375,Monze Urban Clinic
5279155722,-15.7822979,28.1818549,Nangongwe District Medical Office
5279185421,-15.7360223,28.1741635,Kafue One Stop Centre
6295068332,-15.158837,28.4822732,Chaminuka clinic
6313987780,-12.2994815,33.1779566,Lundazi Urban Health Centre
6403515685,-9.9335161,31.2544723,Nseluka Clinic
6449416585,-13.589765,29.5786318,Nkolonga health post
6480790285,-13.3215013,28.4154689,Masaiti Boma Rural Health Centre
6509364085,-14.455364,28.426315,Kasanda Clinic
6877662587,-17.6936507,26.8640845,NaN
7108810885,-14.9962366,22.4624949,Liumba Health Center
7108931886,-15.0838891,22.780373,Mapungo Health Center
7252216188,-15.134585,23.145751,Limulunga Clinic
7557045997,-15.4285057,28.2896854,Kamwala Clinic
7624731185,-13.4534369,32.5792001,Mnukwa Clinic
7646960186,-14.2437148,24.9662286,Kalumwange Clinic
7933809486,-11.266301,29.0536352,Mabumba Rural Health Centre
8169479043,-15.4309355,28.3137799,UTH COVID Test Centre
8378325779,-13.6246862,29.7682969,Nambo Health Post
8378479917,-13.6368579,29.403656,Tazara Health Post
8582519921,-9.8213318,29.3022694,Mukonde health post
8841266518,-13.5436947,23.1097903,Zambezi Hospital Affiliated health Centre
8842022017,-13.2183996,23.0139146,Lukunyi Health Post
8842022120,-13.4693819,23.1405431,Kamakala Health post
8844702018,-13.6097372,23.1305058,Kasesi Health Post
8844702218,-13.580719,23.2613496,Lwatembo East
8844702717,-13.489426,23.4531868,Mukenge Health Post
8844805817,-13.8347236,23.212443,Chitokoloki mission hospital
8844805917,-13.8345478,23.2116422,Chitokoloki Hospital affiliated health centre
9065701117,-13.7154266,22.9409478,Kakoto Health Post
9065703317,-13.7773435,22.9006457,Kucheka Health Facility
9346030456,-12.9678348,28.6299515,Copperbelt Provinicial Health Office
9348108965,-12.3083057,25.8394855,Kalumbila District Health Office
9350861942,-9.1224872,31.5756447,Kamuzwazi Health Post
9455626109,-12.4980278,25.9536928,Health Center F
9455626111,-12.547005,25.8888128,Hope clinic (clinic G)
9455626114,-12.5491048,25.8502319,Kamiba Clinic
9455626116,-12.4978524,25.8805446,Clinic D
9455628819,-12.437581,25.9240074,Clinic B
9455628821,-12.4250711,25.9320956,Jagaimo Clinic
9455628825,-12.3858088,25.9297433,Clinic A
9687486117,-14.0854,27.2546167,Ngabwe Rural Health Centre
9969312639,-9.882381,32.299805,Under Five Clinic
9969312640,-10.6606667,32.1148056,Kaloswe Health Post
9969312642,-11.5965298,31.9242967,Mukungule Rural Health Centre
9969312643,-10.64364,31.620001,Clinic
9969312644,-10.4953167,32.7878,Chibale Rural Health Centre
9969312645,-10.131255,32.122499,Clinic
9969312647,-9.662261,32.594954,NaN
9969312648,-11.48165,31.84524,Chabala Health Post
9969312649,-11.682216,32.77496,Chikwa Rural Health Centre
9969312652,-9.711821,32.959212,Mwene Chanka Rural Health Centre
9969312653,-9.260462,32.3458,Nalulenga Underfive Clinic
9969312654,-10.310101,32.86947,Under5 Meeting Center
9969312656,-9.686043,32.736384,Nacitema Health Post
9969312657,-11.336754,30.672255,Chinkobo Health Post
9969312658,-10.330193,33.120066,Sichitambule Health Post
9969312659,-9.5507639,32.7434685,Mayembe Health Post
9969312662,-10.256052,33.008237,Kampumbu Rural Health Centre
9969312665,-10.545149,31.673192,Mwaba Clinic
9969312666,-10.1005861,32.1929047,Kalisha Health Post
9969312667,-11.339562,30.953586,Kanseke Mothers Shelter
9969312669,-11.401827,31.383788,Kanyelele Health Post
9969312670,-11.066988,31.960693,Kabangama Rural Health Center
9969312671,-10.851243,31.285016,Kabanda Rural Health Centre
9969312672,-10.595367,32.140808,Kalwala Health Post
9969312673,-11.616227,30.559254,Chainda Health Centre
9969312676,-10.578848,31.572356,Health Post
9969312678,-10.644068,31.943858,Nkula Health Post
9969312679,-10.363136,33.40591,Choma Health Post
9969312680,-9.393553,32.262703,Chozi Rural Health Centre
9969312681,-10.565039,31.828391,Chibamba Health Post
9969312683,-10.303449,32.670348,Milongo Health Post
9969312684,-9.9103792,33.2382333,Nachisitu Rural Health Centre
9969312686,-9.586072,32.728305,NaN
9969312687,-12.008376,32.93449,Under Five Weighing In
9969312688,-10.326975,32.249893,Mundu Rural Health Centre
9969312689,-11.686924,30.957473,Mulonga Health Post
9969312690,-11.227299,30.742225,Chipembele Health Centre
9969312691,-10.2280379,33.4578189,Wiya Health Post
9969312692,-9.328831,32.751036,Gesika Private Clinic
9969312693,-10.7174864,31.8006852,Ilondola Rural Health Centre
9969312694,-10.831369,33.190872,Sitwe Health Post
9969312695,-10.157409,32.635223,NaN
9969312699,-10.552521,32.066618,Chinsali Hospital Affiliated Health Centre
9969312700,-11.434714,30.857616,Kawama Health Post
9969312701,-12.2431382,30.5769512,Chiundaponde Rural Health Centre
9969312703,-11.002752,31.972104,Kafwala Rural Health Center
9969312704,-11.267235,31.901523,Musonko Health Post
9969312705,-10.762498,31.843798,Shemu Under 5 Post
9969312706,-11.42403,31.148572,Puta
9969312707,-12.855648,30.778567,Underfive Children Health Centre
9969312709,-11.348483,31.772481,Mukwikile Health Post
9969312710,-10.998347,32.383497,Lundu Rural Health Centre
9969312713,-9.287208,32.442255,Nteko Health Post
9969312715,-10.153014,32.695539,Chinyansi Health Post
9969312716,-10.298183,33.442568,Kaseya Clinic
9969322217,-9.366258,32.609834,Chitamba Health Post
9969322220,-10.079057,32.575625,Kantenshya Health Post
9969322223,-9.509937,32.759708,Vyonga Health Post
9969322224,-11.512149,31.796713,Chakulwa Clinic
9969322226,-9.814228,33.167851,Chibule Heath Post
9969322227,-11.155453,30.821088,Kasesha Health Post
9969322229,-10.869215,31.957403,Muntuwenda Health Post
9969322230,-10.049197,32.243552,Clinic
9969322231,-11.62227,30.602447,Mapoma Rural Health Centre
9969322233,-12.140582,31.37572,Mupundu Clinic
9969322234,-10.866095,32.034987,Clinic
9969322236,-10.596,31.88418,NaN
9969322237,-11.411405,30.916635,Under Five Centre
9969322238,-12.539931,31.039074,NaN
9969322239,-11.804804,31.671228,Kaluba Health Post
9969322242,-10.742269,32.105372,Kalye Rural Clinic
9969322244,-9.745132,32.636391,Chapanya Health Post
9969322246,-10.303886,32.760947,Under 5 Centre
9969322248,-9.450261,32.588399,Waitwika Rural Health Centre
9969322250,-11.094038,33.150978,Kambwili Health Post
9969322251,-9.687728,32.707797,Kalungu Rural Health Centre
9969322254,-9.45695,32.882198,Kaombwe Health Post
9969322256,-10.17591,32.561193,Kafwimbi Rural Health Centre
9969322257,-11.122376,31.175613,Mansha Under 5 Health Post
9969322258,-10.6389355,33.4728292,Samusaluya Community Health Centre
9969322259,-10.90863,31.855334,Konja Rural Health Centre
9969322260,-11.6893167,32.7017333,Chigoma Rural Health Centre
9969322261,-11.844362,30.744171,Kaonda Rural Health Centre
9969322262,-12.800315,31.018252,NaN
9969322263,-12.027748,31.339551,Chilonga Mission Health Care
9969322264,-10.524849,31.71928,Mwika Rural Health Centre
9969322265,-10.167799,32.32798,Charles Health Post
9969322267,-12.606769,31.008012,Kalonje Pump Station Clinic
9969322268,-12.317802,31.721044,Kazembe Health Post
9969322269,-11.258255,31.717367,Lole Phc
9969322270,-11.775535,32.845524,Manga Mission Health Post
9969322272,-12.585909,30.939781,Mwenda Health Post
9969322273,-9.415824,32.740177,Iwula Health Post
9969322274,-10.640959,31.777058,Health Post
9969322276,-10.486609,33.444888,Temwani Health Post
9969322278,-11.244693,31.46152,Lukaka Rural Health Centre
9969322279,-10.3972535,32.7399865,Chinji Health Post
9969322280,-9.818571,32.755674,Sansamwenje Health Post
9969322282,-10.350149,33.292759,Chitapo Health Post
9969322283,-9.3287591,32.6877802,Mwenzo Rural Health Center
9969322285,-9.691184,33.144792,Nzoche Health Post
9969322286,-11.774068,30.835795,Kopa Rural Health Center
9969322289,-12.07298,32.888579,Community Health Post
9969322290,-11.083621,30.910953,Mulengasunkutu Rural Health Centre
9969322294,-10.628949,32.155358,Nambuluma Police Rural Health Centre
9969322296,-11.7078507,30.664698,Rural Health Center
9969322298,-11.906504,31.43657,Chibansa Rural Health Centre
9969322300,-11.520104,32.795747,Chimpamba Health Post
9969322301,-10.705314,32.109521,Chewe Rural Clinic
9969322303,-11.9648923,31.3302345,Mpika Rural Health Centre
9969322304,-10.841755,31.748271,Mungulube Healthy Post
9969322305,-10.188747,32.288224,Health Post
9969322306,-10.2114722,33.3017222,Itontela Health Post
9969322307,-9.57161,32.624995,Chilolwa Rural Health Centre
9969322309,-11.168976,32.922755,Rural Health Center
9969322310,-10.163864,32.795842,Nazareth Health Facility
9969322311,-11.515318,31.190798,Chikosa Rural Health Post
9969322312,-10.57722,33.44962,Muyombe Rural Health Centre
9969322316,-10.153807,33.048816,Muyeleka Health Post
9969322317,-11.443133,30.616597,Kabinga Rural Health Centre
9969322318,-10.42627,33.432321,Wenella Health Post
12296970264,-10.973631,29.694935,Shikamushile Rural Health Centre
12296977798,-10.941712,29.64412,Mwewa Health Post
12296983267,-10.905513,29.781368,Nambale Rural Health Centre
12296987258,-10.94076,29.547457,Miponda Rural Health Centre
12297027183,-10.745997,29.626705,Kasuba Rural Health Centre
12297042689,-10.821696,29.485972,Chimanda Rural Health Centre
12297045960,-10.7548414,29.7348408,Kasaba Hospital Affiliated Health Centre
12297054216,-10.859683,29.795387,Chikuwe Health Post
12297062523,-10.7928658,29.5883192,Sashi Health Post
12298453261,-10.4274537,29.3852361,Kansonta Health Post
12298503463,-10.4089164,29.2994098,Mimbulu Health Post
12298737279,-10.5622,29.3134,Kaoma Makasa Rural Health Centre
12298743170,-10.2597,29.18525,Mukanga Health Post
12298744619,-10.4141742,28.9105458,Mukabi Health Post
12298746212,-10.2867656,29.383846,Kalundu Rural Health Centre
12298748803,-10.2987,28.91347,Musalango Health Post
12298748808,-9.6746442,29.6228753,Mambwe Health Post
12298760473,-10.47732,29.04798,Kamami Health Post
12298768815,-10.01342,29.898571,Chimpili Rural Health Centre
12298776358,-9.863731,29.54703,Chibote Rural Health Center
12299649011,-9.799634,29.226713,Shikalaba Health Post
12299649947,-9.796823,29.311141,Kabila Rural Health Center
12299663985,-9.815693,29.390685,Mushota Rural Health Centre
12299767378,-9.992027,29.117268,Muyembe Rural Health Center
12299789599,-9.735858,29.4038704,Buyaka Health Post
12299835173,-9.624743,29.455877,Chitotela Health Post
12301300750,-9.875373,29.091624,Zakeyo Health Post
12301311417,-9.8042323,29.0510507,Munkanta Rural Health Center
12301318236,-9.744996,29.276412,Kawambwa Tea Rural Health Centre
12301318383,-10.092697,29.642937,Kota Health Post
12301324531,-9.7775788,29.424681,Chama Rural Health Centre
12301333102,-9.716462,29.204975,Kapako Health Post
12301335253,-10.1942917,29.7075723,Musungu Rural Health Centre
12301346072,-9.909552,29.278863,Chitondo Rural Health Centre
12301703835,-9.815611,29.1270853,Lusambo Rural Health Centre
12301711785,-9.877165,29.367874,Ntembo Health Post
12301714645,-9.79327,29.076635,Kawambwa Hospital Affiliated Health Centre
12301752366,-9.827218,28.972955,Matende Health Post
12301757774,-11.0752833,28.9107167,Chisembe Health Post
12301798548,-9.7347462,29.0799464,Luatula Health Post
12301846215,-9.6127878,29.0062364,48 Marine (Kala) Camp Hospital
12301912026,-11.4117574,30.1430515,Kasoma Lunga Rural Health Centre
12307035592,-11.28791,29.56365,Kasanse Health Post
12307035597,-11.2210904,28.9693866,Mantumbusa Rural Health Center
12307064454,-11.4066655,29.0947231,Lukali Health Post
12307107757,-11.45562,28.43203,Mabo Health Post
12307158184,-11.30714,29.36527,Kafuula Health Post
12307158185,-11.2916,28.4977,Musesha Health Post
12307182044,-11.32242,29.5507,Sepe Health Post
12307187042,-11.2221,29.04947,Shoti Health Post
12307204543,-11.2686272,29.1082319,Chisongo Health Post
12307207767,-11.27701,29.28531,Lubende Rural Health Center
12307207790,-11.22514,28.5141,Chansa Health Post
12307221436,-11.2667,29.5236,Ndoba Rural Health Center
12307226434,-11.2057,29.1094,Monga Health Post
12307250052,-11.2514391,29.0053716,Mwela Health Post
12307269873,-11.18485,28.71671,Matelo Health Post
12308944225,-11.2075273,29.4585622,Moloshi Rural Health Centre
12309274663,-10.9434333,28.80915,ZNS Luamfumu Health Centre
12309275562,-10.864269,28.791791,NaN
12309279599,-11.16232,28.90287,Fiyongoli Health Post
12309304856,-11.1253869,28.886703,Kampalala Health Post
12309319019,-10.89635,29.0014667,Mano Rural Health Centre
12309337060,-10.6961,28.92482,Mutwewankoko Health Post
12309360098,-11.13135,29.202807,Lupende Health Post
12309364964,-11.1442983,28.951709,Mutiti Rural Health Centre
12309379788,-11.11448,29.04599,Chimfula Health Post
12309384750,-11.5064726,28.402067,Kalyongo Rural Health Centre
12309391510,-11.0712239,29.1566548,Kalaba Rural Health Centre
12309392611,-11.3784368,28.4609653,Matanda Rural Health Centre
12318181483,-9.5075727,29.9810152,Mole Health Post
12318942965,-11.47652,28.7928,Malamba Health Post
12320934691,-11.35456,29.48879,Musaila Rural Health Center
12320950092,-11.3819481,28.8705188,Matenda Health Post
12320952922,-11.4068388,28.8270163,Fimpulu Rural Health Center
12320976888,-11.2848329,28.8692908,Muwanguni Rural Health Center
12320980420,-11.34213,28.92452,Mikula Health Post
12321044601,-11.27841,28.9296,Tayali Health Post
12322985408,-11.464002,29.2718652,Nsonga Rural Health Centre
12325343171,-11.3617613,29.1247609,Mupofwe Health Post
12325347238,-11.34577,29.3088,Kapisha Health post
12325347788,-11.4041445,29.2776553,James Health Post
12325357518,-11.3056,29.10203,Mupita Health Post
12325360120,-11.32263,29.18279,Kansenga Rural Health Centre
12325360129,-11.23848,28.78011,Masaba Health Post
12325360406,-11.2719,29.20156,Kale Health Post
12325372416,-11.37983,29.38138,Mashimi Health Post
12325372762,-11.2054377,28.8825958,Buntungwa Urban Health Centre
12325372769,-11.4960698,29.4443108,Musaba Health Post
12325385321,-11.302279,29.4050173,Mibenge Rural Health Centre
12325388773,-11.22223,28.86435,Fibale Health Post
12325453362,-11.73295,29.1180167,Lwela Rural Health Centre
12330256694,-11.4418836,28.9980942,Kabange Rural Health Centre
12330343121,-11.5618214,29.1085749,Kuyafya Health Post
12330345580,-11.55589,29.16306,Mulumbi Rural Health Centre
12330359843,-12.3565212,29.281888,Shitambuli Health Post
12330363747,-12.3372225,29.1615722,Changwe Lungo Health Post
12336512797,-9.5144511,31.6481326,Kukunta Health Post
12347676443,-9.748323,28.7661394,Mukamba Rural Health Centre
12347677264,-9.8200461,28.761285,Kazembe Rural Health Centre
12347689822,-9.7881254,28.752467,Chipita Health Post
12347694246,-9.8965881,28.7376311,Katotoma Health Post
12347717270,-10.71139,28.80819,Zesco Musonda Rural Health Centre
12347719339,-9.8555526,28.7659289,Pembe Health Post
12347725251,-9.96227,28.73066,Salanga Rural Health Centre
12347725253,-10.846925,28.740641,Kanchinchi Health Post
12347730750,-10.7269333,29.5093833,Katuta Rural Health Centre
12347741870,-10.7182788,28.6712634,Chibondo Rural Health Centre
12347767606,-10.6337,28.69582,Kabila Health Post
12347772882,-10.4418046,28.654128,Kashiba Rural Health Centre
12347806870,-10.69241,28.7151,Mweshi Health Post
12351047822,-10.33712,28.67911,Kankomba Health Post
12351064082,-10.29352,28.7271712,Loto Health Post
12351349424,-10.05954,28.6731,Chanshi Health Post
12354719862,-9.433,28.7419167,Kambwali Rural Health Centre
12354719867,-9.1093832,28.946703,Kefulwa Health Post
12355081530,-9.77021,28.86173,Kabalenge Rural Health Centre
12355081533,-9.3339495,28.7799087,Shikapande Health Post
12355086175,-9.69129,28.75708,Toka Toka Health Post
12355745276,-9.4753988,28.8234215,Mantapala Health Post
12355784656,-9.5060807,28.881873,Mantapala Rural Health Centre
12356024233,-9.4570331,28.7484672,Mulwe Health Post
12356045811,-9.2415752,28.8073542,Kafutuma Rural Health Centre
12356058379,-9.5486234,28.736492,Chabilikila Rural Health Centre
12356070297,-9.5430852,28.7060867,Kapambwe Health Post
12356104872,-9.34557,28.74654,Nchelenge Rural Health Centre
12361662606,-12.1432002,29.5514775,Mulisha Health Post
12361663000,-11.4658,29.4809,Nkungu Health Post
12361867578,-11.344903,29.5452,Chundu Health Post
12361870125,-11.345098,29.53616,Makasa Health Post
12361871448,-11.3686,29.5526,Samfya stage 2 Urban Health Centre
12361889713,-11.5639002,29.7963904,Chinsanka Rural Health Centre
12361890109,-11.5198663,29.786057,Chimembe Rural Health Centre
12361903051,-11.9670811,29.5062334,Kasanka Rural Health Centre
12361923093,-11.4567,29.81842,Mpanta Rural Health Centre
12361952232,-11.361103,29.548795,Veronica Chikonda Adolescent Clinic
12361953830,-11.4962501,29.5514015,Mano Health Post
12361959304,-11.5426139,29.6725371,Chipako Rural Health Centre
12361963854,-11.840905,29.501391,Chisakana Health Post
12460823433,-13.785298,28.504753,Luamabwe Rural Health Centre
12462501273,-13.673443,28.504234,Chisapa Health Post
12466466546,-13.426881,28.384305,Butikili Health Post
12466488118,-13.802631,28.644532,Kalweo Rural Health Centre
12466558357,-13.367655,28.409408,Lyobeka Health Post
12466561978,-13.866931,27.887589,Mushipashi Rural Health Centre
12466567245,-13.6377641,27.8450203,Ipumbu Rural Health Centre
12466568725,-13.4349534,28.2378302,Kanyenda Rural Health Centre
12466569741,-13.6465112,27.614957,Machiya Rural Health Centre
12466569980,-13.395357,28.335737,Chibuli Health Post
12466570012,-13.832014,27.836629,Chisanga Health Post
12466570334,-13.452039,27.933529,St Anthony Rural Health Centre
12466573430,-13.262418,28.2618,Kasamba Rural Health Centre
12466591516,-13.648431,27.548483,Chimbofuma Health Post
12466602931,-13.495047,28.032383,Mfulabunga Rural Health Centre
12466915684,-13.51964,28.11742,Chipesa Health Post
12466976175,-13.86055,27.8361156,Mwinuna Rural Health Centre
12466977785,-13.591633,28.409642,Luankuni Health Post
12466981524,-13.559053,28.346343,Mikata Rural Health Centre
12466989764,-13.5250304,28.2280284,Bwembelelo Health Post
12467004793,-13.78494,28.141957,Muchindushi Health Post
12467027859,-13.829106,28.261104,Intanda Health Post
12467041403,-13.5730131,28.0751797,Nampamba Rural Health Centre
12467051307,-12.455922,27.867882,Fitobaula Health Post
12467052710,-12.4570868,27.9098173,Fikolongo Health Post
12467054844,-12.3802371,27.8451522,Azatiza Health Centre
12467056220,-12.419161,27.965029,Milyashi East Health Post
12467082697,-12.2990124,27.7572041,Konkola Health Post
12467100008,-12.2961027,27.7597456,Konkola Health Centre 2
12468432452,-12.3900117,27.7638604,Miteta Health Post
12468511729,-12.3296768,27.8581213,Kawama Health Post (Chililabombwe)
12468526205,-12.3405606,27.9153561,Lubansa Health Post
12468526890,-12.659561,28.057495,Plantsite Chambishi Health Post
12468539245,-12.348814,27.832408,PPZ Health Post
12468541874,-12.851562,28.1368671,Chibuluma Urban Health Centre
12468761687,-12.7575863,27.8918807,Chiwembashi Health Post
12468768743,-12.637506,28.062651,Chambishi Mine Urban Health Centre
12468782284,-12.7465218,27.7371664,Chisangwa Health Post
12468785850,-12.849952,27.8753,Kite Rural Health Centre
12468798640,-12.803822,27.804595,Chati Rural Health Centre
12468808020,-12.7984239,28.0583585,Kameme Health Post
12468823847,-12.7392872,28.0529772,Denovan Health Post
12468829955,-12.741034,28.12527,Ichimpe Rural Health Centre
12468831160,-12.848666,28.099099,Kalulushi Urban Health Centre
12473049350,-12.617545,28.143778,Lukoshi Rural Health Centre
12473099376,-12.8972382,28.1268781,Mindolo Training Farms Urban Health Centre
12473112077,-12.646195,28.067878,Lulamba Health Post
12473113617,-12.616309,28.000058,Musakashi Health Post
12473128510,-12.853502,28.078771,Kalengwa South Health Post
12473130915,-12.646949,27.997711,Fitanda Health Post
12473131708,-12.7151232,27.988092,Misenga Health Post
12473155309,-12.86766,28.1402392,Chibote Health Post
12473159880,-12.62734,28.058314,Sitwe Health Post
12473172252,-12.7953915,28.2082043,Tinna Medical Centre
12473176834,-12.631186,28.075798,Twaiteka Zambia Compound Health Post
12473180028,-12.7710177,28.2291471,Bulangililo Urban Health Center
12473193824,-12.8231608,28.2175052,Bauleni Health Centre
12473195112,-12.8360524,28.2363109,Natwange Mopani Clinic
12475097891,-12.72292,28.17621,Mission Regan Zambia Clinic
12475140365,-12.8571,28.22744,Chamboli Urban Health Centre
12475144833,-12.769417,28.201033,Chimwemwe Urban Health Center
12475145623,-12.85885,28.22517,Chamboli J Clinic (Mopani)
12475145624,-12.87485,28.24663,SOS Kitwe Health Center
12475203778,-12.686322,28.15183,Luongo Health Post
12475215009,-12.8068958,28.3213329,Faith Baptist (Kakolo) Clinic
12475215240,-12.851571,28.4023783,Misaka Health Post
12475215241,-12.8525859,28.2371075,Ndeke Urban Health Center
12475215625,-12.8489444,28.2322222,Chande Medical Center
12477821120,-12.81998,28.2530929,Mpelembe Secondary School Health post
12479853273,-12.826991,28.215737,Hillbengrace Medical Centre
12479870200,-12.7896488,28.2319647,Dr. Dilobar's Childrens clinic
12479904141,-12.7992598,28.2253054,Lubambe Medical and Wellness Services
12479939301,-12.79215,28.23987,Riverside Urban Health Center
12479981884,-12.7932484,28.1834895,Mindolo 2 Mopani Clinic
12479984448,-12.8131429,28.2096096,Planned Parenthood Health Centre
12479988312,-12.783863,28.192817,Kitwe College of Education Health Post
12479995469,-12.77959,28.18377,Mindolo Ecumenical Fellowship Health Post
12480573948,-12.8101244,28.2223324,Mawlaick ZCCF Kitwe Camp Clinic
12480575682,-12.8202172,28.2117345,Beatrice Memorial Medical Centre
12480610381,-12.820047,28.20476,Kitwe District Police Health Centre
12480622229,-12.8027502,28.22059,Royal Medical Center
12480640316,-12.825627,28.2151309,Springs of Life Medical Centre
12480648326,-12.830468,28.210147,KCM Nkana Clinic
12480650748,-12.8251,28.21188,Carewell Medical Centre
12480664434,-12.8044192,28.2184083,Speciality Emergency Services (Kitwe)
12480681496,-12.875867,28.2502,Luangwa Urban Health Center
12480697737,-12.927446,28.337466,Kakolo Rural Health Centre
12480705068,-12.8785047,28.2626485,Community Development College Health Post
12480726915,-12.94791,28.21623,ZNS Kitwe Camp Rural Health Centre
12480752541,-12.8394885,28.2075145,Wusakile D4 Mopani Clinic
12484586727,-13.1034239,28.3313332,SDA Health Centre
12484618047,-13.1213939,28.3100336,Kawama Urban Health Centre
12484707410,-12.9571711,28.1463554,Chikabuke Rural Health Centre
12488453959,-12.9151374,27.9343075,Chimoto Health Post
12488474456,-12.8915609,28.0131703,St Joseph Rural Health Centre
12488474717,-12.99886,28.0448336,Chantete Rural Health Centre
12488500130,-12.9901611,27.4412949,Mafuta Health Post
12488510534,-12.9713553,27.8170059,Mukutuma Rural Health Centre
12488529353,-12.8540631,27.6766169,Shimukunami Rural Health Centre
12488539407,-12.8617122,27.682172,St Clara Health Post
12488551140,-12.703338,27.4961181,Chinemu Rural Health Centre
12488574062,-13.0414722,27.4708599,Funda Health Post
12491833461,-12.92493,27.51445,Kapilamikwa Health Post
12495336916,-13.073116,27.755142,Chisanina Health Post
12495378481,-12.6115844,27.5503688,Mibila Rural Health Centre
12495398482,-12.951085,27.23812,Lumwana Health Post
12495401680,-12.944164,27.163414,Nchakwa Health Post
12495402166,-12.968241,27.9101756,Mibenge Health Post
12495403220,-12.937168,27.3150749,Luswishi Health Post
12495407307,-13.1786264,27.505154,Chipese Health Post
12495797589,-13.29483,28.0792844,Mukumbo Rural Health Centre
12495815547,-12.8553481,27.0748511,Mushingashi Rural Health Centre
12495830880,-12.931185,27.046846,Kambilombilo Health Post
12495836749,-13.292242,27.793354,Chilwa Health Post
12495848653,-13.12569,27.9119,Lumpuma Rural Health Centre
12495860378,-12.8792391,28.0906531,Nkana Health Post
12497594963,-13.205237,28.80832,Bangwe Health Post
12497610936,-13.107678,28.754496,Munkulungwe Health Post
12497619646,-13.4950634,28.88157,Ishitwe Health Post
12497622004,-13.200776,28.864334,Kansamfu Health Post
12497622632,-13.373673,28.900366,Mpulabushi Health Post
12497627910,-13.483355,28.799663,Silangwa Health Post
12497638321,-13.5571319,28.792052,Mobe Health Post
12497667629,-13.473684,28.979948,Katonte Health Post
12497697284,-13.031031,28.773926,Dangote Private Clinic
12497701091,-13.005723,28.7188714,Chiwala Health Post
12504581938,-13.4426732,28.7346732,Miengwe Rural Health Centre
12504606173,-13.354769,28.791614,Mbotwa Health Post
12504629690,-12.975397,28.726488,Neelkanth Health Post
12504691216,-13.285353,28.417769,Masaiti Boarding Health Post
12504693408,-12.9752501,28.735528,Njelemani Rural Health Centre
12506439726,-13.2485485,28.5069632,Saka Health Post
12506444987,-13.183981,28.597958,Mukolwe Health Post
12506447576,-13.143183,28.695478,Lumano Health Post
12506471660,-13.12615,28.705889,Idream Health Post
12506481293,-13.3102,28.74886,Kaunga Health Post
12506482740,-13.245888,28.683468,Masangano Health Post
12518375582,-13.468077,28.673796,Matipa Health Post
12518379850,-13.203386,28.284194,Miputu Health Post
12518384763,-13.4143334,28.6194249,Michinka Health Post
12518408929,-13.336807,28.627397,Eden Health Post
12518477157,-12.464315,28.114739,Ngambi Health Post
12531177865,-12.437659,28.209163,Muya Health Post
12531182039,-12.5036484,28.2813181,Minambe Health Post
12531186797,-12.482528,28.371956,Olasho Health Post
12531281040,-12.5513949,28.3997933,Mupena Health Post
12531924810,-12.5462686,28.2542484,Sunbright Medical Consultancy
12531960612,-12.541392,28.35504,NaN
12533489635,-12.5639167,28.2323889,Mufulira Teachers Training College Health Post
12533511427,-12.5669715,28.260174,Taungup Health Centre
12565489790,-16.195841,23.159877,Silowana Rural Health Centre
12565540439,-16.3174912,23.2704599,Sitoti Rural Health Centre
12565559853,-16.639403,23.247001,Lyabangu Health Post
12565574975,-16.8884418,22.9972034,Liwandamo Health Post
12565580043,-16.3915357,23.3715927,Mbeta Health Post
12565625017,-16.756147,23.294919,Mwanambao Health Post
12565639025,-16.3903012,23.1120032,Nalwashi Rural Health Centre
12565664864,-16.2853354,23.1131499,Liumbo Health Post
12565666441,-16.800264,23.555275,Kabula 2 Health Post
12565690927,-16.680146,23.585124,Sankandi Health Post
12565713876,-16.2852557,23.1830199,Kalenge Health Post
12567044487,-15.1078379,22.7034875,Buleya Health Post
12567445909,-15.1540779,22.8553464,NaN
12567445910,-15.6777071,22.5765239,NaN
12567447042,-15.4020221,22.8574231,Lukona Rural Health Centre
12568144518,-14.9510333,24.8857667,Kashamu Health Post
12578436714,-14.7189202,24.0869112,Nalulembwe Health Post
12874106868,-12.7198994,28.1523522,mukuba clinic
12901813701,-14.193307,29.6610225,Kaundula Rural Health Center
12901827301,-14.0696097,29.1517,Busa Health Center
12945053907,-15.9254811,28.8697834,Kambale Rural Health Centre
12981306001,-14.4661617,29.4049098,Kanyesha Health Center
13055156313,-17.8493561,25.8510674,Medprof Medical Centre
13266409724,-16.1424516,28.5117504,Ibwe Munyama Clinic
13275415901,-15.5250884,28.2586381,Lilayi Family Clinic
13284475968,-15.4198717,28.3162348,OMS Renal Care Centre
13336583424,-15.4979465,28.2576939,Sterelin Medical & Diagnostics
9969322325,-10.025307,32.310491,Clinic
9969322329,-11.846475,31.400105,Tazara Residential Clinic
9969322330,-11.2221891,31.8273865,Shiwa Ng`andu Urban Health Centre
9969322331,-11.5306252,33.2268916,Kalovya Health Post
9969322332,-9.967174,32.38422,Mpf
9969322333,-12.191027,30.652224,Health Post
9969322334,-11.707971,31.459165,ZCA Rural Health Centre
9969322335,-10.975451,31.918658,Lupande Health Post
9969322336,-10.672247,31.79432,Nkonde Uci Clinic
9969322337,-10.256648,33.372584,Thendele Rural Health Centre
9969322338,-9.653917,32.700651,Kamwambe Health Post
9969322339,-10.887327,31.737126,Spider Health Post
9969322340,-12.107213,32.39332,Kalasa Health Post
9969322344,-9.347368,32.808601,Ibrahim Health Post
9969322345,-10.483596,32.719674,Kabanjila Health Post
9969322346,-12.005815,32.704674,Kasela Health Post
9969322348,-10.953936,31.065753,Chambeshi Health Post
9969322349,-10.1387017,33.3367458,Mulekatembo Rural Health Centre
9969322350,-9.353458,32.532947,Ilola Health Post
9969322351,-11.085337,33.096103,Kambombo Rural Health Centre
9969322352,-10.3612158,32.3987309,Musanya Health Post
9969322353,-12.2397,30.3135,Kapilya Rural Health Centre
9969322354,-12.118677,31.172537,Kasenga Rural Health Centre
9969322356,-10.419715,32.072621,Misonta Primary Health Care
9969322357,-11.811985,31.26236,Luchembe Health Post
9969322358,-11.195207,30.75419,Mbati Rural Health Centre
9969322359,-12.616858,31.004172,Mpumba Rural Health Centre
9969322361,-11.032767,31.691354,Chimpusa Health Post Clinic
9969322363,-10.15561,32.209449,Mwalule Health Post
9969322364,-12.756359,30.925735,Rural Health Centre
9969322366,-11.512755,31.797519,Chakulwa
9969322367,-9.9464634,32.4368102,Chilunda Health Post
9969322370,-10.777847,32.008749,Yosamu Clinic
9969322371,-10.659489,32.858172,Kamunga
9969322372,-10.265508,32.793898,Clinic Under 5
9969322373,-10.298357,33.242883,Chanama Health Post
9969322374,-10.084762,33.146355,Mwenewisi Clinic
9969322375,-9.284552,32.555217,Movu Health Post
9969322376,-10.687064,32.371706,Chilubanama Rural Health Centre
9969322378,-9.976387,32.846849,Mwenekombe Health Post
9969322379,-11.4066467,31.2362131,Chikakala Health Post
9969322380,-10.3756189,33.4979485,Kalyamani Health Post
9969322381,-9.134027,32.190222,Mukalizi Health Post
9969322382,-11.001246,32.405441,Muzyatama Health Post
9969322383,-9.690095,33.213985,Under Construction Kanyala Health Post
9969322385,-11.214731,31.974926,Kakoko Health Post
9969322386,-10.841437,31.408768,Sele Health Post
9969322388,-11.511502,31.153057,Mother'S Shelter
9969322389,-11.1643219,31.2752697,Kabula Mwiko Health Post
9969322390,-11.809679,31.571714,Clinic
9969322391,-11.715012,31.815154,Health Centre
9969322394,-10.254446,32.300079,Nkweto Health Post
9969322396,-12.21201,31.128632,Mukonteka Health Post
9969322398,-10.591233,32.006582,Lubwa Rural Health Centre
9969322399,-10.514471,33.324155,NaN
9969322400,-9.6243043,32.9213593,Ituntu Health Post
9969322401,-10.828841,31.979865,Clinic
9969322402,-10.539983,32.946259,Mulilo Rural Health Centre
9969322403,-9.781166,32.877177,Nachisungu Health Post
9969322404,-12.487187,31.053863,Salamo Heath Post
9969322405,-10.489046,33.271282,NaN
9969322406,-9.486944,32.634624,Kantongo Health Post
9969322407,-11.873014,32.575685,Chifunda Rural Health Centre
9969322409,-11.657928,30.76476,Mutabala Clinic
9969322410,-11.249437,30.732968,Samu Rural Centre
9969322412,-9.185273,32.413851,Mipulya Health Post
9969322413,-11.360212,32.8893931,Tembwe Rural Health Centre
9969322414,-10.084189,32.856501,Katyetye Health Post
9969322415,-12.697786,30.816238,Mabonga Health Post
9969322418,-9.905573,32.261138,Kalela Health Post
9969322419,-11.095774,31.330964,Health Hut
9969322420,-12.093503,30.488122,Mwelushi Health Post
9969322421,-11.955516,31.425866,Kaole Rural Health Centre
9969322422,-12.5464006,31.9681396,Chaya Health Post
9969322423,-11.54769,31.593051,Mukungwa Health Centre
9969322425,-10.109579,32.173756,Ntomombo Clinic
9969322427,-12.2077808,31.741008,Kalimba Health Post
9969322428,-10.963251,32.033622,Matumbo Rural Health Centre
9969322431,-9.636862,32.993591,Mukumbe Health Post
9969322432,-10.810807,31.77456,Health Post
9969322434,-9.859518,32.687303,Ilizya Health Post
9969322435,-11.9849123,30.3767763,Muwele Rural Health Centre
9969322438,-11.174295,32.904952,Mwalala Rural Health Centre
9969322439,-9.850007,32.612721,NaN
9969322442,-10.71399,33.51195,Gwebe Health Centre
9969322443,-9.205351,32.283502,Ntantumbila Rural Health Centre
9969322444,-10.758822,31.752456,Health Post
9969322445,-11.4474791,33.038461,Chitukula Health Post
9969322447,-12.208535,30.443196,Chifishi Health Post
9969322449,-11.381793,31.871905,Mwilwa Rural Health Post
9969322450,-10.616211,32.075901,Malalo Rural Health Post
9969412906,-13.624469,29.768357,Nomba Clinic
9969412908,-15.122509,28.75183,Mwapula Health Post
9969412909,-14.366922,28.632364,Bruneli Health Post
9969412910,-15.126067,26.887851,Lutale Rural Health Centre
9969412911,-14.920959,27.02844,Kabwanga Clinic
9969412912,-15.178048,28.146475,Namununga Health Post
9969412913,-15.389931,27.453385,Keezwa Rural Health Centre
9969412915,-13.513948,29.041277,Musofu Rural Health Center
9969412916,-15.160724,27.190186,Luili Rural Health Centre
9969420318,-15.106828,27.029846,Mukwasa Clinic
9969420322,-14.526496,28.409276,Kang'Omba Clinic
9969420323,-15.269451,27.813627,Harper Ann Clinic
9969420324,-14.144828,28.350962,Mpunde Mission Rural Health Centre
9969420325,-14.562778,29.005253,Kapumba Health Center
9969420327,-14.243095,28.418182,Chitakata Health Post
9969420329,-14.315827,28.709804,Chibwe Rural Health Center
9969420331,-15.357323,27.607874,Shachelel Clinic
9969420332,-12.30483,30.301882,Chipundu Health Post
9969420334,-14.454806,28.569776,Tubombe Rural Health Center
9969420339,-14.663089,29.757317,Mboshya Clinic
9969420340,-13.471746,29.81612,Ndabala Rural Health Centre
9969420342,-14.445307,28.4137,Makululu Health Center
9969420343,-13.621872,29.607705,Nkolonga Farm Clinic
9969420344,-14.604342,28.460488,Kalima Health Post
9969420345,-15.2585822,27.5992409,Mwimbi Community Rural Health Centre
9969420347,-13.455549,30.39437,Kamena Rular Health Centre
9969420348,-14.975745,26.71278,Nalusanga Clinic
9969420349,-13.540918,30.068858,Koffi Kunda Clinc
9969420351,-15.262536,28.084706,Musopelo Rural Health Clinic
9969420354,-14.557851,28.662337,Mututu Clinic
9969420357,-14.730365,28.844522,Mulungishi Hydro Health Centre
9969420361,-14.562737,29.005466,Kapumba Health Center
9969420364,-15.270352,28.264612,Mist Medical Centre
9969420365,-15.263471,28.266237,ZNS Clinic
9969420367,-12.351626,30.16529,Mpelembe Health Centre
9969420368,-14.017377,29.566711,Shaibila Health Post
9969420369,-15.137924,27.922221,Chilochabalenje Health Post
9969420372,-13.616612,29.395271,Chibefwe Clinic
9969420375,-14.664434,28.076916,Chibombo Clinic
9969420377,-15.4750272,27.7796284,Shabasonje Rural Health Centre
9969420382,-13.193644,31.076819,Masase Heaith Center
9969420383,-15.634795,26.590115,Banamwanze Rural Clinic
9969420384,-15.015721,26.821728,Lungobe Rural Health Center
9969420385,-14.737975,27.132407,Kamilambo Healthy Center
9969420387,-15.388955,27.786074,Lutheran Rural Health Center
9969420389,-15.085739,27.187144,Mumbwa Airforce Base Clinic
9969420390,-13.945198,29.387206,Luano Clinic
9969420391,-15.505807,26.019364,Itumbi Clinic
9969420396,-14.902346,27.780091,Keembe Health Centre
9969420398,-14.363039,28.577807,Mpima Rural Health Center
9969420400,-14.089183,28.601006,Healthy Clinic Centre
9969420401,-14.286467,28.548801,Mr Banda'S Clinic
9969420402,-13.591708,30.669479,Chisomo Rural Health Centre
9969420404,-14.712212,26.883942,ZNS Clinic
9969420407,-13.978062,28.415136,Chimbo Health Post
9969420409,-14.419524,29.970386,St Joseph's Rural Health Center
9969420410,-13.940839,28.667259,Chawama Clinic
9969420412,-14.367519,29.364357,Old Mkushi Health Center
9969420417,-14.941915,27.202545,Maimwene Health Post
9969420418,-14.39278,28.444078,Ngungu Health Center
9969420421,-13.878072,28.900156,Lukomba Health Center
9969420422,-13.379941,30.12819,Kaluku Pela Clinic
9969420423,-15.218362,27.342735,Myoye Clinic
9969420424,-15.826819,26.285444,Luubwe Health Clinic
9969420425,-14.630989,26.91818,Kafikaamo Rural Health Center
9969420426,-15.200456,26.966246,Musefu Health Centre
9969420428,-14.53293,26.920026,Kaindu Rural Health Centre
9969420429,-13.921234,28.673739,Mutaba Clinic
9969420431,-15.168943,27.728841,Kabangalala Clinic
9969420433,-14.45665,28.471726,Katondo Clinic
9969420438,-15.445517,27.279109,Muchabi Rural Health Center
9969420441,-14.504843,27.134364,Tumbwe Clinic
9969420442,-15.047806,26.002853,Chunga Clinic
9969420445,-15.231159,27.869376,Mboshya Rural Health Center
9969420446,-15.719116,26.070832,Shankasu Clinic
9969420447,-14.311939,29.083277,Chiahinka Rural Health Centre
9969420449,-14.447866,28.442251,Railway Surgical Centre
9969420450,-13.617253,29.395437,Chibefwe Clinic
9969420452,-14.069687,29.151863,Rural Health Center
9969420453,-12.46256,30.352054,Chalilo Rural Health Center
9969420455,-13.765822,28.807015,Nkole Rural Health Post
9969420457,-12.655403,30.075319,Mama Clinic
9969420458,-13.211709,30.130855,Lumpampa Health Post
9969420459,-13.743087,29.069264,Nkumbi Rural Health Center
9969420460,-14.407734,28.449768,Nakoli Clinic
9969420461,-14.708422,28.34902,Kalwelwe Clinic
9969420462,-14.646611,28.684719,Bombwe Health Post
9969420463,-14.799903,27.642042,Lunjofwa Clinic
9969420464,-14.920768,27.02875,Kabwanga Clinic
9969420466,-14.764583,28.575955,Lifwambula Clinic
9969420467,-14.088449,28.597638,Kakulu Clinic
9969420468,-13.921309,28.673862,Mutaba Health Clinic
9969420470,-13.937561,28.478613,Kabaka Rural Health Center
9969420471,-14.434199,28.461168,Mukuni Insurance Clinic Limited
9969420472,-13.98788,28.689411,Kawama Urban Health Centre
9969420474,-14.29339,28.559661,Mulungushi University Community Health Center
9969420477,-14.110358,28.254844,Mpunde Mission Rural Health Centre
9969420479,-12.8387792,30.4384492,Kasensela Health Post
9969420481,-14.061613,28.345234,Chitaba Rural Health Centre
9969420482,-14.359414,29.151335,Mitumpulu
9969420483,-14.443453,28.35484,Chililalila Clinic
9969420484,-15.627232,26.166494,Mbuma Health Center
9969420485,-15.449719,27.829909,Shibunyunji Rural Health Center
9969420486,-14.112679,28.10384,Chipepo Rural Health Centre
9969420490,-13.976965,28.673473,Matilyo Health Centre
9969420491,-13.235602,30.234843,Serenje Urban Clinic
9969420493,-16.182852,26.317289,Mbila Health Centre
9969420494,-13.478226,29.995698,Nchimishi Rural Health Centre
10069286674,-14.6039021,22.9260888,Nmakando Health Post
10199120617,-16.9153077,27.2574973,Mboole
10261853509,-16.9598434,27.2249782,Lilanda
10287265368,-8.489603,30.4560368,Ndole Health Post
10302663349,-11.1194316,24.2706167,Kayipaka Clinic
10662019435,-15.3883014,28.3648822,Phi Family Clinic
10662019440,-15.3975315,28.3725525,Our ladies Nrdc community health post
10662019441,-15.4080237,28.3471767,Harvest health medical center
10662019450,-15.400225,28.38235,Mtendere east clinic
10662019465,-15.3930319,28.3620288,Lusaka clinic
10662019470,-15.3914021,28.3650714,PHI Family Clinic
10662019472,-15.3854443,28.3606112,PHI Family clinic
10663353006,-15.4415783,28.2503828,Nil
10663353007,-15.4258711,28.2456907,C and G cosmetics
10663353009,-15.4375382,28.2497113,Kamoto clinic
10663353029,-15.4429768,28.2493883,Salvation army clinic
10663353037,-15.4373225,28.2382066,Mama Ellen Medical Clinic
10663353038,-15.4489939,28.2331465,Golden care
10739610828,-17.8378542,25.8535537,NaN
10766214029,-15.4077766,28.3326173,NaN
10777259294,-15.5347402,28.2698676,hillside clinic
10783673769,-15.4021826,28.3575641,Mtendere clinic
10826993112,-15.4225091,28.2953711,Lusaka Adventist Clinic
10833592323,-15.4578751,28.2536302,Makeni Islamic clinic
10841585448,-15.568542,28.2709852,Game Clinic
10860305331,-15.8961143,29.043084,Chiawa Rural Health Clinic
10871698399,-16.1831594,27.8235789,Chivuna Clinic
10895407515,-14.2165294,31.7646348,Sinda Rural Health Centre
10901129929,-14.9859418,27.0624112,Mumbwa Medical Center
10911462641,-14.9859418,27.0624112,Mumbwa Medical Center
10959234711,-15.3836772,28.3932936,MediHope Clinic
10970200687,-15.4047785,28.299529,L.J Eye Clinic
10970204301,-15.4056657,28.2992031,Mars Clinic
10989588048,-12.9668359,28.6394549,Health View Medical Centre
11049702305,-13.3862042,31.6057418,Nyamaluma Rural Health Post
11067508478,-17.187726,25.8925076,Nyawa Rural Health Center
11139087041,-9.0514843,31.9002867,Chileshya Health Post
11139087044,-9.0968033,31.7962384,Chisanzu Health Post
11139240482,-9.3947121,31.67295,Chikunta Health Post
11139304770,-9.3712511,31.243976,Kukunta Health Post
11173900192,-17.0926237,24.0091321,Nalukui
11237948242,-8.9375108,31.5529259,Luka Health Post
11375803803,-14.104782,31.8510465,Vulamkoko Rural Health Centre
11377558269,-14.1317172,29.0277537,Kafinda Clinic
11544773697,-8.6396034,29.9764645,Mwewe Clinic
11544830287,-8.8922505,29.948819,Nsama Health Centre
11546555779,-8.4534066,30.4491308,Munjela Health Post
11546555813,-8.4109678,30.457225,Kalomo Clinic
11555258492,-8.5761603,30.7316744,Kabwolwe Health Post
11555300685,-8.6180901,30.8400037,Kapembwa Health Post
11563540381,-16.4401838,24.9568889,Bwina Rural Health Center
11691114678,-16.2640627,24.8829589,Kamanga Health Post
11694111528,-12.2012078,33.2242818,Phikamalaza Rural Health Centre
11697077032,-14.3766459,23.2393007,Luoke East Health Post
11697335608,-14.8390303,22.8071683,Sishekano Health Post
11697337350,-14.5422081,22.2792946,Luola Rural Health Centre
11700202307,-15.5710925,23.2572175,Mande Health Post
11700297028,-14.3964411,23.1890871,NaN
11700350966,-14.9511314,22.8245091,Namweti Health Post
11700402095,-14.3835324,22.8507914,Mitete Rural Health Center
11700638903,-15.4463407,23.7318273,Ndau Rural Health Center
11700648709,-17.1028118,24.6437799,Sankolonga
11700691223,-14.5265887,23.0876239,Nyaala Health Post
11700717297,-14.9219917,22.6438939,Salunda Health Post
11700799269,-14.279943,23.0883399,Manjolo Health Post
11700838156,-14.5202676,22.8944147,Mataba Health Post
11700917614,-17.3158348,23.0265089,Sinjembela Rural Health Centre
11700933103,-14.4571314,22.7586594,Mataa health post
11700997731,-15.2188163,22.1196192,Lwahumba Health Post
11701087976,-15.8031983,22.8452184,Suu Health post
11701307650,-15.5750179,23.2570873,NaN
11715726956,-14.7005592,22.368304,"Lulan,unyi health post"
11715830010,-14.8659232,25.155685,Maloba Health Post
11715830883,-15.3425899,22.2559378,Mwenyi Health Post
11715830923,-17.2650902,24.3906972,Chisu Health Post
11715958061,-14.9582674,23.3865226,Namusheshe Health Post
11716113206,-16.8490132,23.1518972,Kabula Health Post
11716432771,-16.9576659,22.6273406,Kaunga Mashi Rural Health Centre
11716552746,-15.2986426,23.3259983,Sejamba Rural Health Post
11716562413,-16.6786821,25.1646266,Kasima Health Post
11716578660,-16.3103643,24.6235968,NaN
11716608166,-15.2982515,23.3166791,Siwa Health Post
11716619547,-16.0701845,23.8182161,Muweswa Health Post
11716674269,-15.2974175,24.2573064,Nyakayembe Rural Health Centre
11716681205,-16.5627064,22.3820365,State Ranch Health Post
11716838446,-17.0212808,25.1524935,Magumwi Health Post
11716852404,-14.9585523,23.3868231,Mwana Wina Rural Health Center
11716864020,-15.1544868,22.075563,NaN
11716918805,-16.9948944,23.9485363,Walawal Health Post
11716951567,-14.2448167,22.8900596,Mbagweta Health Post
11716964753,-16.1789787,22.7777818,Malombe Health Post
11716976339,-15.344834,22.2855603,Sikushi Health Post
11717035801,-14.2882005,22.7851202,Mitete Rural Health Centre
11717075585,-16.9961222,23.9468321,Njoko Mission Rura lHealth Centre
11717323396,-16.9846042,24.6922038,Luazamba Health Post
11736460970,-11.3500887,29.4326236,Mungulube Rural Health Center
11736470670,-11.967623,29.5128238,Kasanka Rural Health Center
11736675869,-12.1494806,29.4384342,Fwaka Rural Health Center
11736805669,-12.306364,29.4513465,Sokontwe Rural Health Centre
11736807669,-12.4163208,29.4849986,East 7 Rural Health Centre
11737433269,-11.7303347,29.6309004,Kalasamukoso Rural Health Center
11737448569,-11.8180354,29.5944253,Kalasa Mukaso Rural Health Centre
11737576670,-11.7369656,29.6215862,Mabo Kunda Rural Health Centre
11737654669,-11.6631608,29.6282644,Ninge Rural Health Centre
11786481806,-16.8214033,23.1340465,NaN
11793823698,-10.5536641,33.4428981,Temwani Health Post
11801438271,-15.1336949,22.0750875,Sitapa Health Post
11801625437,-15.2563005,22.2578688,Lwahumba Health Post
11801727257,-14.7002246,22.3686748,Makia Health Post
11806656856,-16.2596218,24.6937921,Kalundu Health Post
11806756568,-16.8235891,23.1677996,KASHEKE HEALTH POST
11807124654,-15.4402584,23.7361872,Nakato Health Post
11807201476,-15.8770349,22.8713579,Mande Health Post
11809536285,-15.8644938,24.2714658,Lumbe Nanyezu Health Post
11809536852,-16.8484735,23.159192,Kalenge Health Post
11902309169,-14.8535513,23.6216857,Simaa RHC
11919337935,-15.2880475,22.2492255,Liundu Health Post
12017642670,-13.5430838,23.0655127,Mize mini hospital
12017643169,-13.5963403,22.784015,Muyembe Rural Health Center
12017643969,-13.5335101,22.7453666,Lweji health post
12040496493,-13.8539868,23.6530453,Chizozu Rural Health Centre
12057167145,-12.8301954,28.0858775,Healthlane Medical Centre
12060775563,-16.2335136,23.3634177,Mata
12060998450,-14.850086,24.8190869,Kashanu Health Post
12061444423,-9.4902147,31.2134935,Mwiluzi Health Post
12062743099,-12.2434895,30.5476407,Mwelushi Rural Health centre
12103895805,-14.7396132,30.3651819,Nyalugwe Rural Health Centre
12103908977,-14.6387787,30.9463517,Msima Health Post
12103912647,-14.7822833,30.5765667,Kacholola Rural Health Centre
12103917787,-14.6667506,30.8465559,Hofmeyr Rural Health Centre
12103929825,-14.7218889,30.7626389,Mchimadzi Health Post
12103944501,-14.3710044,30.5953486,Chalubilo Rural Health Centre
12103966175,-14.4687305,30.6705826,Chinambi Rural Health Centre
12103969416,-14.551901,30.873449,Mawanda Health Post
12103970970,-14.4412311,31.0218916,Mkopeka Rural Health Centre
12103971444,-14.4731782,31.0466975,Mtilizi Health Post
12103971778,-14.5757498,30.7016839,Kalingindi Health Post
12103975482,-14.584518,30.986382,Chininkhu Health Post
12103993674,-14.4974308,30.748729,Luangazi Health Post
12104008929,-14.2955966,30.5492007,Luembe Rural Health Centre
12104010603,-14.1279699,30.8342014,Mwape Rural Health Centre
12104012050,-14.4690258,30.8784232,ZNS Rural Health Centre
12104032688,-14.4330224,30.8987179,Mtilizi Rural Health Centre
12104035566,-14.3924811,31.0458423,Chimphanje Rural Health Centre
12104054389,-14.4750436,30.9981375,Vizimumba Health Post
12106372058,-11.6542365,30.7602722,Lokomwila Health Post
12109809914,-9.4730909,29.8335555,Kalabwe Rural Health Centre
12114277771,-14.362866,31.314898,Esther Lungu Rural Health Centre
12114311141,-14.636424,31.11327,Mankhungwe Health Post
12116921595,-14.616913,31.195934,Manyane Rural Health Centre
12116953581,-14.61174,31.258431,Chaka Health Post
12116993107,-14.61094,31.089779,Matonje Health Post
12117013900,-14.5916291,31.3759279,Mwanjawanthu Rural Health Centre
12118170142,-14.516833,31.169791,Kaselo Health Post
12118170143,-14.547922,31.522576,Mtukuzi Rural Health Centre
12120277187,-14.479107,31.310488,Mumbi Rural Health Centre
12120415779,-14.435577,31.269822,Ongolwe Health Post
12120417147,-14.458265,31.161183,Mtumbata Health Post
12120428921,-14.435764,31.385369,Chisenjere Rural Health Centre
12120436553,-14.379806,31.285939,Chisonso Health Post
12120476491,-14.297759,31.47243,Kabvumbe Health Post
12120478200,-14.34098,31.380395,Kalindawalo Rural Health Centre
12120484964,-14.297854,31.187372,Merwe Rural Health Centre
12120485944,-14.259786,31.339544,Prisons Health Post
12120508192,-14.256618,31.325759,Petauke Medical Centre
12120509641,-14.258856,31.327676,Petauke Urban Health centre
12120557808,-14.209568,31.471345,Luamphaande Rural Health Centre
12120573935,-13.891538,31.649426,Msanzala Rural Health Centre
12120578097,-14.206857,31.325242,Zuze Health Post
12123628726,-14.3479543,31.5245169,Mlera Rural Health Centre
12123632579,-14.114734,31.782097,Chindeza Rural Health Centre